City_ID,City,Country,Date,Lat,Lng,Max Temp,Humidity,Cloudiness,Wind Speed,Current Weather,Rain inches (last 3hrs),Snow inches (last 3hrs)
0,Rikitea,PF,2020-05-10 17:30:30,-23.12,-134.97,75.36,73,5,9.73,clear sky,0,0
1,Yellowknife,CA,2020-05-10 17:27:55,62.46,-114.35,30.2,54,20,6.93,few clouds,0,0
2,Staryy Nadym,RU,2020-05-10 17:28:40,65.61,72.68,44.42,88,2,7.54,clear sky,0,0
3,Hobart,AU,2020-05-10 17:27:25,-42.88,147.33,50.0,71,40,9.17,scattered clouds,0,0
4,Nizhniy Bestyakh,RU,2020-05-10 17:30:30,61.96,129.91,30.2,74,99,6.71,overcast clouds,0,0
5,Punta Arenas,CL,2020-05-10 17:30:30,-53.15,-70.92,44.6,93,90,14.99,overcast clouds,0,0
6,Bluff,NZ,2020-05-10 17:30:31,-46.6,168.33,50.58,81,34,9.22,scattered clouds,0,0
7,Guerrero Negro,MX,2020-05-10 17:30:31,27.98,-114.06,71.49,57,26,10.09,scattered clouds,0,0
8,Weihai,CN,2020-05-10 17:30:31,37.5,122.11,55.76,68,0,10.38,clear sky,0,0
9,Cape Town,ZA,2020-05-10 17:26:17,-33.93,18.42,62.01,93,0,2.24,mist,0,0
10,Longyearbyen,SJ,2020-05-10 17:30:29,78.22,15.64,21.2,53,40,10.29,scattered clouds,0,0
11,Sur,OM,2020-05-10 17:30:32,22.57,59.53,83.7,55,0,5.03,clear sky,0,0
12,Puerto Ayora,EC,2020-05-10 17:30:32,-0.74,-90.35,86.0,66,20,13.87,few clouds,0,0
13,Harnosand,SE,2020-05-10 17:28:17,62.63,17.94,42.8,60,99,9.17,overcast clouds,0,0
14,Hermanus,ZA,2020-05-10 17:30:32,-34.42,19.23,59.0,87,0,2.64,clear sky,0,0
15,Popondetta,PG,2020-05-10 17:30:32,-8.75,148.25,74.07,93,82,1.72,broken clouds,0,0
16,Kapaa,US,2020-05-10 17:30:33,22.08,-159.32,75.2,73,90,13.87,overcast clouds,0,0
17,Souillac,MU,2020-05-10 17:30:33,-20.52,57.52,73.4,64,40,11.41,scattered clouds,0,0
18,Nikolskoye,RU,2020-05-10 17:30:33,59.7,30.79,57.99,30,0,4.47,clear sky,0,0
19,Dolores,AR,2020-05-10 17:29:43,-36.31,-57.68,69.51,56,0,12.59,clear sky,0,0
20,Mounana,GA,2020-05-10 17:30:33,-1.41,13.16,77.0,94,20,5.03,few clouds,0,0
21,Bereda,ES,2020-05-10 17:30:33,43.27,-7.54,60.01,92,82,4.0,light rain,0,0
22,Mataura,NZ,2020-05-10 17:30:33,-46.19,168.86,44.83,88,38,3.09,scattered clouds,0,0
23,Alofi,NU,2020-05-10 17:30:34,-19.06,-169.92,77.0,100,41,8.05,scattered clouds,0,0
24,Boyolangu,ID,2020-05-10 17:30:34,-8.12,111.89,76.87,91,97,3.51,light rain,0,0
25,Filingue,NE,2020-05-10 17:30:34,14.35,3.32,100.69,14,39,6.6,scattered clouds,0,0
26,Nantucket,US,2020-05-10 17:29:18,41.28,-70.1,53.01,43,1,28.86,clear sky,0,0
27,Kabanjahe,ID,2020-05-10 17:30:34,3.1,98.49,78.8,100,40,3.36,light rain,0,0
28,Laguna,US,2020-05-10 17:29:29,38.42,-121.42,68.0,63,1,10.29,clear sky,0,0
29,Thinadhoo,MV,2020-05-10 17:30:35,0.53,72.93,85.6,76,100,13.33,light rain,0,0
30,Krasnyy Chikoy,RU,2020-05-10 17:30:35,50.36,108.75,49.84,78,96,13.15,light rain,0,0
31,Chuy,UY,2020-05-10 17:30:35,-33.7,-53.46,73.63,51,37,10.51,scattered clouds,0,0
32,Bambous Virieux,MU,2020-05-10 17:30:35,-20.34,57.76,73.4,64,40,11.41,scattered clouds,0,0
33,Fort William,GB,2020-05-10 17:30:35,56.82,-5.11,46.99,62,92,5.99,overcast clouds,0,0
34,Tual,ID,2020-05-10 17:30:36,-5.67,132.75,83.5,79,90,15.9,light rain,0,0
35,Sibolga,ID,2020-05-10 17:30:36,1.74,98.78,78.57,83,99,3.2,overcast clouds,0,0
36,Albany,US,2020-05-10 17:29:00,42.6,-73.97,55.4,32,75,13.87,broken clouds,0,0
37,Georgetown,MY,2020-05-10 17:30:14,5.41,100.34,78.8,100,40,3.36,scattered clouds,0,0
38,New Norfolk,AU,2020-05-10 17:30:36,-42.78,147.06,48.0,86,82,3.69,broken clouds,0,0
39,Kachiry,KZ,2020-05-10 17:30:36,53.07,76.1,66.85,36,0,2.84,clear sky,0,0
40,Busselton,AU,2020-05-10 17:30:37,-33.65,115.33,46.99,69,80,2.68,broken clouds,0,0
41,Kalat,PK,2020-05-10 17:30:37,29.02,66.59,68.88,22,21,2.1,few clouds,0,0
42,Ulaanbaatar,MN,2020-05-10 17:30:37,47.91,106.88,41.0,44,76,2.24,broken clouds,0,0
43,Tuatapere,NZ,2020-05-10 17:30:37,-46.13,167.68,51.04,80,100,6.04,overcast clouds,0,0
44,Kisangani,CD,2020-05-10 17:30:37,0.52,25.2,73.13,90,100,0.27,overcast clouds,0,0
45,Paamiut,GL,2020-05-10 17:30:37,61.99,-49.67,40.17,85,100,26.78,overcast clouds,0,0
46,Iqaluit,CA,2020-05-10 17:30:38,63.75,-68.51,28.4,63,90,19.46,light snow,0,0
47,Cherskiy,RU,2020-05-10 17:30:38,68.75,161.3,34.0,86,0,20.94,clear sky,0,0
48,Hilo,US,2020-05-10 17:30:38,19.73,-155.09,68.0,68,1,6.93,clear sky,0,0
49,Airai,TL,2020-05-10 17:30:38,-8.93,125.41,56.44,100,6,3.11,clear sky,0,0
50,Port-Cartier,CA,2020-05-10 17:30:38,50.03,-66.87,46.0,42,75,19.46,broken clouds,0,0
51,Huarmey,PE,2020-05-10 17:30:39,-10.07,-78.15,73.76,68,39,10.22,scattered clouds,0,0
52,Fort Nelson,CA,2020-05-10 17:30:34,58.81,-122.7,48.2,45,75,11.41,broken clouds,0,0
53,Tiarei,PF,2020-05-10 17:30:39,-17.53,-149.33,77.0,83,20,3.36,few clouds,0,0
54,Touros,BR,2020-05-10 17:30:07,-5.2,-35.46,86.0,66,20,13.87,few clouds,0,0
55,Tuktoyaktuk,CA,2020-05-10 17:30:40,69.45,-133.04,33.8,80,75,14.99,broken clouds,0,0
56,Nioro,GM,2020-05-10 17:30:40,13.35,-15.75,97.48,23,80,15.32,broken clouds,0,0
57,Butaritari,KI,2020-05-10 17:30:40,3.07,172.79,82.76,78,24,7.67,few clouds,0,0
58,Hirara,JP,2020-05-10 17:30:40,24.8,125.28,78.87,88,37,10.42,light rain,0,0
59,Bronnoysund,NO,2020-05-10 17:30:40,65.46,12.2,39.2,60,75,10.29,shower rain,0,0
60,Dicabisagan,PH,2020-05-10 17:30:40,17.08,122.42,79.88,77,53,2.48,broken clouds,0,0
61,Nouadhibou,MR,2020-05-10 17:30:40,20.93,-17.03,68.74,75,80,26.53,broken clouds,0,0
62,Ibague,CO,2020-05-10 17:29:29,4.44,-75.23,80.6,61,75,6.38,broken clouds,0,0
63,Noumea,NC,2020-05-10 17:26:01,-22.28,166.46,71.01,100,1,2.24,clear sky,0,0
64,Ancud,CL,2020-05-10 17:30:41,-41.87,-73.82,57.0,76,40,10.29,scattered clouds,0,0
65,Hay River,CA,2020-05-10 17:30:34,60.82,-115.8,42.8,52,20,9.17,few clouds,0,0
66,Ewo,CG,2020-05-10 17:30:41,-0.87,14.82,73.06,89,90,5.28,overcast clouds,0,0
67,Kutum,SD,2020-05-10 17:30:41,14.2,24.67,75.65,18,19,3.96,few clouds,0,0
68,Wiwili,NI,2020-05-10 17:30:42,13.63,-85.83,85.84,59,100,3.6,light rain,0,0
69,Flagstaff,US,2020-05-10 17:27:22,35.2,-111.65,77.0,34,20,12.75,few clouds,0,0
70,Nijar,ES,2020-05-10 17:26:52,36.97,-2.21,68.0,60,40,29.97,scattered clouds,0,0
71,Broome,US,2020-05-10 17:30:42,42.25,-75.83,54.0,39,90,13.87,overcast clouds,0,0
72,Ushuaia,AR,2020-05-10 17:30:42,-54.8,-68.3,44.6,81,94,2.46,overcast clouds,0,0
73,College,US,2020-05-10 17:30:43,64.86,-147.8,66.0,39,75,4.7,broken clouds,0,0
74,Nur,PL,2020-05-10 17:30:43,52.67,22.32,58.19,75,37,9.35,scattered clouds,0,0
75,Khandbari,NP,2020-05-10 17:30:43,27.37,87.2,69.62,48,26,4.14,scattered clouds,0,0
76,Plettenberg Bay,ZA,2020-05-10 17:30:43,-34.05,23.37,68.95,39,0,1.99,clear sky,0,0
77,Kiunga,PG,2020-05-10 17:30:44,-6.12,141.29,74.91,98,73,2.28,broken clouds,0,0
78,Hithadhoo,MV,2020-05-10 17:30:44,-0.6,73.08,85.3,77,78,11.86,light rain,0,0
79,Palencia,ES,2020-05-10 17:30:44,42.42,-4.5,57.99,80,96,3.0,light rain,0,0
80,Castro,BR,2020-05-10 17:30:40,-24.79,-50.01,70.43,55,0,6.15,clear sky,0,0
81,Atuona,PF,2020-05-10 17:30:44,-9.8,-139.03,81.21,78,33,19.15,light rain,0,0
82,Paragominas,BR,2020-05-10 17:30:44,-2.97,-47.48,86.79,68,33,3.51,light rain,0,0
83,Beringovskiy,RU,2020-05-10 17:30:44,63.05,179.32,33.4,94,76,15.03,broken clouds,0,0
84,Loa Janan,ID,2020-05-10 17:30:45,-0.58,117.09,76.62,90,96,1.77,overcast clouds,0,0
85,Port Blair,IN,2020-05-10 17:30:45,11.67,92.75,85.05,75,99,2.37,overcast clouds,0,0
86,Semnan,IR,2020-05-10 17:30:45,35.57,53.4,74.88,29,0,4.05,clear sky,0,0
87,Along,IN,2020-05-10 17:30:45,28.17,94.77,66.88,80,56,2.64,broken clouds,0,0
88,Khash,IR,2020-05-10 17:30:45,28.22,61.22,82.63,14,9,4.21,clear sky,0,0
89,Tautira,PF,2020-05-10 17:30:46,-17.73,-149.15,77.0,83,20,3.36,few clouds,0,0
90,Luderitz,NA,2020-05-10 17:30:46,-26.65,15.16,73.4,53,0,2.24,clear sky,0,0
91,Mahebourg,MU,2020-05-10 17:30:46,-20.41,57.7,73.4,64,40,11.41,scattered clouds,0,0
92,Shiyan,CN,2020-05-10 17:30:46,32.65,110.78,60.8,52,16,3.96,few clouds,0,0
93,Port Elizabeth,ZA,2020-05-10 17:30:46,-33.92,25.57,68.0,42,0,2.24,clear sky,0,0
94,Pravda,RU,2020-05-10 17:30:46,46.94,142.01,42.8,93,75,4.47,light intensity shower rain,0,0
95,Krasnoarmeysk,RU,2020-05-10 17:30:47,51.02,45.7,54.0,74,35,4.0,scattered clouds,0,0
96,Qaanaaq,GL,2020-05-10 17:30:47,77.48,-69.36,14.58,82,3,2.3,clear sky,0,0
97,Bathsheba,BB,2020-05-10 17:30:47,13.22,-59.52,87.8,52,20,21.92,few clouds,0,0
98,Karaton,ID,2020-05-10 17:30:47,-6.34,106.1,82.4,88,20,3.36,haze,0,0
99,Dikson,RU,2020-05-10 17:30:47,73.51,80.55,23.54,98,71,12.33,broken clouds,0,0
100,Port Hedland,AU,2020-05-10 17:30:47,-20.32,118.57,77.0,23,100,9.17,overcast clouds,0,0
101,Iguape,BR,2020-05-10 17:27:33,-24.71,-47.56,77.23,52,0,6.6,clear sky,0,0
102,Kruisfontein,ZA,2020-05-10 17:30:48,-34.0,24.73,63.03,36,0,2.04,clear sky,0,0
103,Medvezhyegorsk,RU,2020-05-10 17:30:48,62.92,34.47,41.58,67,7,4.65,clear sky,0,0
104,Geraldton,AU,2020-05-10 17:30:48,-28.77,114.6,59.0,77,0,2.24,clear sky,0,0
105,Salalah,OM,2020-05-10 17:30:48,17.02,54.09,84.2,83,38,5.82,scattered clouds,0,0
106,Nanyamba,TZ,2020-05-10 17:30:48,-10.68,39.83,70.47,89,16,4.88,few clouds,0,0
107,Horta,PT,2020-05-10 17:29:02,38.53,-28.63,62.6,63,20,26.4,few clouds,0,0
108,Muleba,TZ,2020-05-10 17:30:49,-1.84,31.65,70.43,78,95,6.11,overcast clouds,0,0
109,Tignere,CM,2020-05-10 17:30:49,7.37,12.65,67.15,95,73,5.14,heavy intensity rain,0,0
110,Wewak,PG,2020-05-10 17:30:49,-3.55,143.63,80.8,84,96,7.25,light rain,0,0
111,San Quintin,MX,2020-05-10 17:30:50,30.48,-115.95,69.15,69,29,9.28,scattered clouds,0,0
112,Vaini,TO,2020-05-10 17:30:50,-21.2,-175.2,71.6,100,20,2.24,few clouds,0,0
113,Olga,RU,2020-05-10 17:30:50,43.74,135.29,44.89,94,89,1.52,overcast clouds,0,0
114,Saint-Philippe,RE,2020-05-10 17:30:50,-21.36,55.77,71.6,64,77,9.17,broken clouds,0,0
115,Chokurdakh,RU,2020-05-10 17:30:50,70.63,147.92,28.31,98,100,15.75,overcast clouds,0,0
116,Porvoo,FI,2020-05-10 17:30:50,60.39,25.67,53.01,53,97,6.78,overcast clouds,0,0
117,Narasannapeta,IN,2020-05-10 17:30:51,18.42,84.05,83.3,79,32,9.95,scattered clouds,0,0
118,Cockburn Town,TC,2020-05-10 17:30:51,21.46,-71.14,80.64,81,83,23.29,broken clouds,0,0
119,Jamestown,US,2020-05-10 17:30:51,42.1,-79.24,55.0,37,90,18.34,overcast clouds,0,0
120,Shache,CN,2020-05-10 17:30:52,38.42,77.24,61.47,61,90,8.37,moderate rain,0,0
121,Biak,ID,2020-05-10 17:30:52,-0.91,122.88,77.63,81,97,4.36,light rain,0,0
122,Pangnirtung,CA,2020-05-10 17:30:52,66.15,-65.71,24.8,73,90,19.46,light snow,0,0
123,Sitka,US,2020-05-10 17:30:52,57.05,-135.33,64.4,42,40,3.36,scattered clouds,0,0
124,Coquimbo,CL,2020-05-10 17:30:52,-29.95,-71.34,55.4,87,75,8.05,broken clouds,0,0
125,Cayenne,GF,2020-05-10 17:30:53,4.93,-52.33,84.2,74,72,12.75,moderate rain,0,0
126,Barrow,US,2020-05-10 17:30:53,71.29,-156.79,21.2,92,20,9.17,mist,0,0
127,Khatanga,RU,2020-05-10 17:30:54,71.97,102.5,24.33,97,97,8.25,overcast clouds,0,0
128,Qui Nhon,VN,2020-05-10 17:30:54,13.77,109.23,78.3,89,5,5.37,clear sky,0,0
129,Lebu,CL,2020-05-10 17:30:54,-37.62,-73.65,57.22,79,66,8.68,light rain,0,0
130,Sun Valley,US,2020-05-10 17:26:48,39.6,-119.78,71.6,18,1,10.29,clear sky,0,0
131,Itamaraju,BR,2020-05-10 17:30:55,-17.04,-39.53,75.34,64,83,7.02,broken clouds,0,0
132,Faya,SA,2020-05-10 17:30:55,18.39,42.45,71.6,68,10,5.82,clear sky,0,0
133,Hofn,IS,2020-05-10 17:30:55,64.25,-15.21,42.8,41,85,5.82,overcast clouds,0,0
134,Saskylakh,RU,2020-05-10 17:30:55,71.92,114.08,13.84,95,96,7.7,overcast clouds,0,0
135,Constitucion,CL,2020-05-10 17:30:55,-35.33,-72.42,61.54,64,25,5.48,scattered clouds,0,0
136,Riberalta,BO,2020-05-10 17:30:56,-10.98,-66.1,92.55,42,0,2.91,clear sky,0,0
137,Sorland,NO,2020-05-10 17:30:56,67.67,12.69,37.4,64,40,6.93,shower rain,0,0
138,Mount Isa,AU,2020-05-10 17:27:21,-20.73,139.5,62.6,23,6,12.75,clear sky,0,0
139,Senekal,ZA,2020-05-10 17:30:56,-28.32,27.62,58.03,35,0,6.42,clear sky,0,0
140,Port-Gentil,GA,2020-05-10 17:30:57,-0.72,8.78,75.2,94,75,10.29,broken clouds,0,0
141,Kayes,ML,2020-05-10 17:30:57,14.0,-11.0,104.9,17,52,8.34,broken clouds,0,0
142,Bardiyah,LY,2020-05-10 17:30:57,31.76,25.09,66.61,64,0,5.93,clear sky,0,0
143,Salinas,US,2020-05-10 17:27:39,36.68,-121.66,59.0,71,90,3.36,overcast clouds,0,0
144,Carnarvon,AU,2020-05-10 17:30:57,-24.87,113.63,72.9,59,78,7.58,broken clouds,0,0
145,Fairbanks,US,2020-05-10 17:30:32,64.84,-147.72,66.0,36,1,2.77,clear sky,0,0
146,Yenagoa,NG,2020-05-10 17:30:59,4.92,6.26,75.2,96,100,5.19,overcast clouds,0,0
147,Belmonte,BR,2020-05-10 17:30:59,-15.86,-38.88,78.8,47,40,8.05,scattered clouds,0,0
148,Yeppoon,AU,2020-05-10 17:30:59,-23.13,150.73,64.4,52,6,5.82,clear sky,0,0
149,Namibe,AO,2020-05-10 17:30:59,-15.2,12.15,80.19,55,23,6.53,few clouds,0,0
150,Vianen,NL,2020-05-10 17:28:42,51.99,5.09,53.01,52,100,8.99,overcast clouds,0,0
151,Severo-Kurilsk,RU,2020-05-10 17:30:59,50.68,156.12,32.92,93,64,9.37,broken clouds,0,0
152,La Ronge,CA,2020-05-10 17:31:00,55.1,-105.28,35.6,47,75,8.05,broken clouds,0,0
153,Goalpara,IN,2020-05-10 17:31:00,26.17,90.62,81.36,41,7,1.23,clear sky,0,0
154,East London,ZA,2020-05-10 17:31:00,-33.02,27.91,74.14,39,0,5.44,clear sky,0,0
155,Pacific Grove,US,2020-05-10 17:30:00,36.62,-121.92,59.0,72,75,6.93,broken clouds,0,0
156,Saldanha,ZA,2020-05-10 17:31:00,-33.01,17.94,66.2,52,0,6.93,clear sky,0,0
157,Norman Wells,CA,2020-05-10 17:31:00,65.28,-126.83,46.4,52,5,11.41,clear sky,0,0
158,Itarema,BR,2020-05-10 17:31:01,-2.92,-39.92,77.86,88,100,7.87,light rain,0,0
159,Houma,US,2020-05-10 17:31:01,29.6,-90.72,78.01,53,1,3.36,clear sky,0,0
160,Atlantic City,US,2020-05-10 17:28:17,39.36,-74.42,61.0,26,1,12.75,clear sky,0,0
161,Lagoa,PT,2020-05-10 17:31:01,39.05,-27.98,58.64,75,15,25.72,few clouds,0,0
162,Shimoda,JP,2020-05-10 17:31:01,34.67,138.95,69.8,94,75,14.99,light intensity shower rain,0,0
163,Tura,IN,2020-05-10 17:31:01,25.52,90.22,78.93,46,3,2.42,clear sky,0,0
164,Lamu,KE,2020-05-10 17:31:02,-2.27,40.9,79.36,86,100,17.18,light rain,0,0
165,Oussouye,SN,2020-05-10 17:31:02,12.48,-16.55,86.0,83,20,6.93,few clouds,0,0
166,Dapdap,PH,2020-05-10 17:31:02,12.06,125.49,81.77,83,100,8.75,overcast clouds,0,0
167,Vestmannaeyjar,IS,2020-05-10 17:31:02,63.44,-20.27,46.4,70,40,13.87,scattered clouds,0,0
168,Lorengau,PG,2020-05-10 17:31:02,-2.02,147.27,83.14,80,36,7.9,light rain,0,0
169,Arawa,PG,2020-05-10 17:31:03,-6.21,155.54,78.46,78,93,2.17,overcast clouds,0,0
170,Taoudenni,ML,2020-05-10 17:31:03,22.68,-3.98,104.61,7,19,10.13,few clouds,0,0
171,Buraydah,SA,2020-05-10 17:30:39,26.33,43.98,86.0,37,40,9.17,dust,0,0
172,Henties Bay,NA,2020-05-10 17:31:03,-22.12,14.28,72.25,44,0,13.24,clear sky,0,0
173,Aklavik,CA,2020-05-10 17:31:04,68.22,-135.01,41.0,65,40,9.17,scattered clouds,0,0
174,Magadan,RU,2020-05-10 17:31:04,59.57,150.8,34.47,85,99,6.6,overcast clouds,0,0
175,Kieta,PG,2020-05-10 17:31:04,-6.22,155.63,79.97,76,96,2.77,overcast clouds,0,0
176,Avera,US,2020-05-10 17:31:04,33.19,-82.53,69.8,45,1,4.7,clear sky,0,0
177,Sibu,MY,2020-05-10 17:31:05,2.3,111.82,78.8,94,75,0.98,broken clouds,0,0
178,Pisco,PE,2020-05-10 17:31:05,-13.7,-76.22,71.6,78,2,8.05,clear sky,0,0
179,Atar,MR,2020-05-10 17:31:05,20.52,-13.05,100.47,9,61,13.24,broken clouds,0,0
180,Auki,SB,2020-05-10 17:31:05,-8.77,160.7,78.78,87,8,5.66,light rain,0,0
181,Saint-Augustin,CA,2020-05-10 17:31:05,51.23,-58.65,36.46,83,95,8.97,overcast clouds,0,0
182,Half Moon Bay,US,2020-05-10 17:29:38,37.46,-122.43,63.0,63,40,10.29,scattered clouds,0,0
183,Puerto Colombia,CO,2020-05-10 17:28:40,10.99,-74.95,91.4,63,20,13.87,few clouds,0,0
184,Pevek,RU,2020-05-10 17:31:06,69.7,170.31,35.73,83,47,15.59,scattered clouds,0,0
185,Dingle,PH,2020-05-10 17:31:06,11.0,122.67,79.41,79,99,4.45,overcast clouds,0,0
186,Harper,LR,2020-05-10 17:31:07,4.38,-7.72,83.59,78,16,14.14,few clouds,0,0
187,Neuquen,AR,2020-05-10 17:30:28,-38.95,-68.06,68.0,22,2,21.92,dust,0,0
188,Petropavlovsk-Kamchatskiy,RU,2020-05-10 17:30:37,53.05,158.65,33.8,64,1,8.95,clear sky,0,0
189,Ilebo,CD,2020-05-10 17:31:07,-4.32,20.58,73.9,95,100,2.98,overcast clouds,0,0
190,Bandarbeyla,SO,2020-05-10 17:31:07,9.49,50.81,83.37,75,10,10.8,clear sky,0,0
191,Suoyarvi,RU,2020-05-10 17:31:07,62.08,32.35,44.04,64,50,3.67,scattered clouds,0,0
192,Qasigiannguit,GL,2020-05-10 17:31:08,68.82,-51.19,32.0,91,94,10.29,overcast clouds,0,0
193,Tilichiki,RU,2020-05-10 17:31:08,60.47,166.1,31.12,100,100,1.48,light rain,0,0
194,Gornopravdinsk,RU,2020-05-10 17:31:08,60.05,69.9,63.55,53,100,6.06,overcast clouds,0,0
195,Bredasdorp,ZA,2020-05-10 17:31:08,-34.53,20.04,60.8,87,0,3.36,clear sky,0,0
196,Codrington,AU,2020-05-10 17:31:08,-38.27,141.97,46.04,93,4,9.91,clear sky,0,0
197,Faanui,PF,2020-05-10 17:31:09,-16.48,-151.75,81.0,80,28,11.3,light rain,0,0
198,Dubuque,US,2020-05-10 17:31:09,42.48,-90.87,44.01,86,90,23.04,light rain,0,0
199,Maragogi,BR,2020-05-10 17:31:09,-9.01,-35.22,81.5,76,58,10.65,broken clouds,0,0
200,Dongsheng,CN,2020-05-10 17:27:08,39.82,109.98,42.69,51,63,12.71,broken clouds,0,0
201,Port Alfred,ZA,2020-05-10 17:31:09,-33.59,26.89,71.01,55,13,6.17,few clouds,0,0
202,Kenora,CA,2020-05-10 17:31:09,49.82,-94.43,37.4,37,75,12.75,broken clouds,0,0
203,Mayo,US,2020-05-10 17:31:10,38.89,-76.51,63.0,29,1,9.17,clear sky,0,0
204,Kavieng,PG,2020-05-10 17:31:10,-2.57,150.8,83.35,80,80,10.25,broken clouds,0,0
205,Albury,AU,2020-05-10 17:31:03,-36.08,146.92,44.6,93,90,2.55,overcast clouds,0,0
206,Leningradskiy,RU,2020-05-10 17:31:10,69.38,178.42,35.26,91,100,20.42,overcast clouds,0,0
207,Pilane,BW,2020-05-10 17:31:10,-24.45,26.13,62.6,59,0,1.12,clear sky,0,0
208,Sinnamary,GF,2020-05-10 17:31:11,5.38,-52.95,78.3,92,67,13.11,heavy intensity rain,0,0
209,Isangel,VU,2020-05-10 17:31:11,-19.55,169.27,69.75,72,8,6.31,clear sky,0,0
210,Cabo San Lucas,MX,2020-05-10 17:31:11,22.89,-109.91,86.0,39,40,4.7,scattered clouds,0,0
211,Katsuura,JP,2020-05-10 17:31:11,35.13,140.3,70.0,93,100,3.0,overcast clouds,0,0
212,Linjiang,CN,2020-05-10 17:31:11,41.81,126.91,47.03,68,20,7.49,few clouds,0,0
213,Hasaki,JP,2020-05-10 17:31:11,35.73,140.83,71.6,94,75,10.29,light intensity shower rain,0,0
214,Djenne,ML,2020-05-10 17:31:12,13.91,-4.55,99.0,24,54,6.98,broken clouds,0,0
215,Pochutla,MX,2020-05-10 17:31:12,15.74,-96.47,93.99,49,20,8.05,few clouds,0,0
216,Taltal,CL,2020-05-10 17:31:12,-25.4,-70.48,65.43,61,22,3.91,few clouds,0,0
217,Tena,EC,2020-05-10 17:31:12,-0.98,-77.82,82.4,78,75,4.7,broken clouds,0,0
218,Severnyy,RU,2020-05-10 17:31:12,50.68,36.55,50.0,93,75,2.24,broken clouds,0,0
219,Fortuna,US,2020-05-10 17:31:12,40.6,-124.16,62.01,82,40,5.82,scattered clouds,0,0
220,Tasiilaq,GL,2020-05-10 17:31:13,65.61,-37.64,35.6,59,0,11.41,clear sky,0,0
221,Saint George,US,2020-05-10 17:29:32,37.1,-113.58,86.0,19,1,0.51,clear sky,0,0
222,Tiksi,RU,2020-05-10 17:31:13,71.69,128.87,25.66,98,89,6.33,overcast clouds,0,0
223,Bukachacha,RU,2020-05-10 17:31:13,52.98,116.92,40.82,65,88,16.35,overcast clouds,0,0
224,Hambantota,LK,2020-05-10 17:31:13,6.12,81.12,82.31,81,100,4.72,light rain,0,0
225,Utica,US,2020-05-10 17:27:00,43.1,-75.23,46.99,52,90,14.99,light rain,0,0
226,Axim,GH,2020-05-10 17:31:13,4.87,-2.24,82.56,81,75,11.97,broken clouds,0,0
227,Necochea,AR,2020-05-10 17:31:14,-38.55,-58.74,70.0,47,32,4.0,scattered clouds,0,0
228,Dunedin,NZ,2020-05-10 17:31:14,-45.87,170.5,48.99,97,35,4.65,scattered clouds,0,0
229,Hervey Bay,AU,2020-05-10 17:31:14,-25.3,152.85,63.0,68,48,5.01,scattered clouds,0,0
230,Ferme-Neuve,CA,2020-05-10 17:31:14,46.7,-75.45,48.25,47,97,13.11,overcast clouds,0,0
231,Green River,US,2020-05-10 17:31:14,41.53,-109.47,51.8,34,1,12.75,clear sky,0,0
232,Rochester,US,2020-05-10 17:31:08,43.15,-77.62,50.0,88,90,19.46,light rain,0,0
233,Amahai,ID,2020-05-10 17:31:15,-3.33,128.92,78.64,85,100,1.92,light rain,0,0
234,Santa Isabel,BR,2020-05-10 17:31:15,-23.32,-46.22,75.2,44,20,3.36,few clouds,0,0
235,Baruun-Urt,MN,2020-05-10 17:31:15,46.68,113.28,47.86,53,86,20.89,overcast clouds,0,0
236,Seymchan,RU,2020-05-10 17:31:15,62.88,152.43,30.36,95,100,9.98,overcast clouds,0,0
237,Mexico,PH,2020-05-10 17:30:46,15.06,120.72,78.8,94,75,2.24,broken clouds,0,0
238,Vilhena,BR,2020-05-10 17:31:16,-12.74,-60.15,83.59,62,54,3.02,light rain,0,0
239,Karpathos,GR,2020-05-10 17:31:17,35.51,27.21,69.8,35,31,8.05,scattered clouds,0,0
240,Victoria,HK,2020-05-10 17:30:29,22.29,114.16,80.01,83,95,5.46,light rain,0,0
241,The Valley,AI,2020-05-10 17:31:17,18.22,-63.06,86.0,55,40,16.11,scattered clouds,0,0
242,Kupang,ID,2020-05-10 17:27:34,-10.17,123.58,77.16,78,0,9.33,clear sky,0,0
243,Takoradi,GH,2020-05-10 17:31:17,4.88,-1.76,82.72,81,84,11.65,broken clouds,0,0
244,Ordzhonikidze,KZ,2020-05-10 17:31:18,52.44,61.74,66.04,63,47,8.16,scattered clouds,0,0
245,Beipiao,CN,2020-05-10 17:31:18,41.79,120.78,53.31,36,6,10.71,clear sky,0,0
246,Ayorou,NE,2020-05-10 17:31:18,14.73,0.92,97.9,9,1,1.61,clear sky,0,0
247,Antalaha,MG,2020-05-10 17:31:18,-14.9,50.28,74.53,80,67,9.15,broken clouds,0,0
248,Esperance,AU,2020-05-10 17:31:18,-33.87,121.9,53.6,50,38,13.87,scattered clouds,0,0
249,Korla,CN,2020-05-10 17:26:19,41.76,86.15,67.41,22,93,15.48,overcast clouds,0,0
250,Bengkulu,ID,2020-05-10 17:31:19,-3.8,102.27,77.04,90,100,2.37,light rain,0,0
251,Nehe,CN,2020-05-10 17:31:19,48.48,124.83,42.48,78,16,7.67,few clouds,0,0
252,Abnub,EG,2020-05-10 17:31:19,27.27,31.15,91.4,27,24,11.41,few clouds,0,0
253,Broken Hill,AU,2020-05-10 17:31:19,-31.95,141.43,44.6,65,0,8.05,clear sky,0,0
254,Veraval,IN,2020-05-10 17:31:19,20.9,70.37,81.81,83,0,8.19,clear sky,0,0
255,Charters Towers,AU,2020-05-10 17:31:20,-20.1,146.27,63.54,82,20,4.12,few clouds,0,0
256,Shingu,JP,2020-05-10 17:31:20,33.73,135.98,65.93,93,100,4.81,overcast clouds,0,0
257,Atbasar,KZ,2020-05-10 17:31:20,51.8,68.33,67.19,58,64,2.55,broken clouds,0,0
258,Narendranagar,IN,2020-05-10 17:31:20,30.17,78.3,68.85,49,75,6.33,broken clouds,0,0
259,Sokoni,TZ,2020-05-10 17:31:20,-6.43,39.55,80.6,74,90,6.93,overcast clouds,0,0
260,Inuvik,CA,2020-05-10 17:27:09,68.35,-133.72,42.8,60,40,8.05,scattered clouds,0,0
261,Vila Franca Do Campo,PT,2020-05-10 17:31:21,37.72,-25.43,62.6,67,20,23.04,few clouds,0,0
262,Bilma,NE,2020-05-10 17:31:21,18.69,12.92,86.11,11,0,2.26,clear sky,0,0
263,Arraial Do Cabo,BR,2020-05-10 17:26:33,-22.97,-42.03,77.0,53,0,20.8,clear sky,0,0
264,Alyangula,AU,2020-05-10 17:31:21,-13.85,136.42,73.4,100,27,14.92,scattered clouds,0,0
265,Panacan,PH,2020-05-10 17:31:22,9.25,118.41,81.39,79,46,4.61,scattered clouds,0,0
266,Cidreira,BR,2020-05-10 17:31:23,-30.18,-50.21,70.92,56,6,8.43,clear sky,0,0
267,Ribeira Grande,PT,2020-05-10 17:31:23,38.52,-28.7,62.6,63,20,26.4,few clouds,0,0
268,General Pico,AR,2020-05-10 17:31:23,-35.66,-63.76,71.35,33,0,19.19,clear sky,0,0
269,Adjumani,UG,2020-05-10 17:31:23,3.38,31.79,71.69,92,98,2.89,overcast clouds,0,0
270,Roald,NO,2020-05-10 17:31:23,62.58,6.13,37.0,72,90,14.99,light rain,0,0
271,Husavik,IS,2020-05-10 17:31:24,66.04,-17.34,51.8,27,79,28.86,broken clouds,0,0
272,Catuday,PH,2020-05-10 17:31:24,16.29,119.81,81.54,83,0,11.25,clear sky,0,0
273,Puerto Parra,CO,2020-05-10 17:31:24,6.65,-74.06,91.4,63,40,4.7,scattered clouds,0,0
274,Anloga,GH,2020-05-10 17:31:24,5.79,0.9,77.0,88,20,3.36,thunderstorm with light rain,0,0
275,Phan Thiet,VN,2020-05-10 17:31:24,10.93,108.1,78.55,84,17,4.5,few clouds,0,0
276,Ganzhou,CN,2020-05-10 17:31:24,28.82,115.43,68.04,79,38,2.26,scattered clouds,0,0
277,Devarkonda,IN,2020-05-10 17:31:25,16.7,78.93,90.18,34,16,6.42,few clouds,0,0
278,Torbay,CA,2020-05-10 17:31:25,47.67,-52.73,42.01,65,75,32.21,broken clouds,0,0
279,Yatou,CN,2020-05-10 17:31:25,37.15,122.38,55.13,55,0,7.31,clear sky,0,0
280,San Isidro,PE,2020-05-10 17:31:25,-12.12,-77.05,73.4,64,62,18.34,broken clouds,0,0
281,Mount Gambier,AU,2020-05-10 17:31:25,-37.83,140.77,48.2,100,75,9.17,broken clouds,0,0
282,Jahanabad,IN,2020-05-10 17:31:26,25.22,84.98,86.0,79,40,4.7,haze,0,0
283,Kaitangata,NZ,2020-05-10 17:31:26,-46.28,169.85,46.99,83,41,1.01,scattered clouds,0,0
284,Wau,SS,2020-05-10 17:31:26,7.7,28.0,81.41,58,93,4.65,overcast clouds,0,0
285,Smithers,CA,2020-05-10 17:31:26,54.78,-127.17,53.6,27,20,16.11,few clouds,0,0
286,Ostrovnoy,RU,2020-05-10 17:31:26,68.05,39.51,31.87,96,19,7.4,few clouds,0,0
287,Teguldet,RU,2020-05-10 17:31:26,57.31,88.17,60.31,59,42,4.43,scattered clouds,0,0
288,Khuzdar,PK,2020-05-10 17:31:27,27.74,66.64,82.76,13,0,6.96,clear sky,0,0
289,Grand Gaube,MU,2020-05-10 17:31:27,-20.01,57.66,70.0,75,34,1.99,scattered clouds,0,0
290,Mpongwe,ZM,2020-05-10 17:31:27,-13.51,28.16,58.21,78,37,5.88,scattered clouds,0,0
291,Shellbrook,CA,2020-05-10 17:31:27,53.22,-106.4,39.2,44,20,11.41,few clouds,0,0
292,Juazeiro,BR,2020-05-10 17:31:27,-9.41,-40.5,80.6,61,75,12.75,broken clouds,0,0
293,Zahir Pir,PK,2020-05-10 17:31:27,28.81,70.52,95.23,12,17,6.6,few clouds,0,0
294,Shelburne,CA,2020-05-10 17:31:28,44.08,-80.2,45.0,93,90,6.93,light rain,0,0
295,Bonavista,CA,2020-05-10 17:31:28,48.65,-53.11,35.33,85,9,31.45,clear sky,0,0
296,Vazante,BR,2020-05-10 17:31:28,-17.99,-46.91,73.0,63,25,6.67,scattered clouds,0,0
297,Wajir,KE,2020-05-10 17:31:28,1.75,40.06,78.6,74,71,12.95,broken clouds,0,0
298,Manokwari,ID,2020-05-10 17:31:28,-0.87,134.08,80.26,77,100,3.24,light rain,0,0
299,Mahibadhoo,MV,2020-05-10 17:31:28,3.78,72.97,85.35,78,99,13.31,moderate rain,0,0
300,Rocha,UY,2020-05-10 17:31:29,-34.48,-54.33,72.68,57,24,11.68,few clouds,0,0
301,Utrecht,NL,2020-05-10 17:27:32,52.0,5.25,53.01,52,100,8.99,overcast clouds,0,0
302,Homer,US,2020-05-10 17:29:25,59.64,-151.55,53.6,50,1,5.82,clear sky,0,0
303,Sinazongwe,ZM,2020-05-10 17:31:29,-17.26,27.46,70.61,54,84,4.25,broken clouds,0,0
304,Nalut,LY,2020-05-10 17:31:29,30.33,10.85,92.44,11,40,9.44,scattered clouds,0,0
305,Lasem,ID,2020-05-10 17:31:29,-6.69,111.45,79.29,86,100,4.47,light rain,0,0
306,San Pedro Carcha,GT,2020-05-10 17:31:30,15.48,-90.27,73.62,75,96,2.77,overcast clouds,0,0
307,Nanortalik,GL,2020-05-10 17:31:30,60.14,-45.24,46.27,73,88,17.72,overcast clouds,0,0
308,Spornoye,RU,2020-05-10 17:31:30,50.84,37.29,50.0,93,75,2.24,broken clouds,0,0
309,Zatoka,UA,2020-05-10 17:31:30,46.07,30.47,62.6,51,54,13.42,broken clouds,0,0
310,Hun,LY,2020-05-10 17:31:30,29.13,15.95,92.97,11,66,12.91,broken clouds,0,0
311,Ilulissat,GL,2020-05-10 17:31:31,69.22,-51.1,32.0,90,83,10.29,broken clouds,0,0
312,Flinders,AU,2020-05-10 17:31:31,-34.58,150.86,48.0,71,3,1.01,clear sky,0,0
313,Morehead,US,2020-05-10 17:31:31,37.27,-87.18,68.0,39,1,12.75,clear sky,0,0
314,San Carlos De Bariloche,AR,2020-05-10 17:27:39,-41.15,-71.31,46.0,86,75,11.41,moderate rain,0,0
315,Kifri,IQ,2020-05-10 17:31:32,34.7,44.97,75.74,22,0,5.86,clear sky,0,0
316,Oktyabrskiy,RU,2020-05-10 17:31:32,54.48,53.47,57.51,63,65,6.15,broken clouds,0,0
317,Uyemskiy,RU,2020-05-10 17:31:32,64.47,40.85,41.0,75,3,6.71,clear sky,0,0
318,Port Lincoln,AU,2020-05-10 17:31:32,-34.73,135.87,54.3,69,11,7.09,few clouds,0,0
319,Umm Kaddadah,SD,2020-05-10 17:31:32,13.6,26.69,87.89,12,23,11.39,few clouds,0,0
320,Gat,IL,2020-05-10 17:29:01,31.61,34.76,70.0,70,0,8.55,clear sky,0,0
321,Wonthaggi,AU,2020-05-10 17:31:32,-38.6,145.59,50.0,89,64,14.45,light rain,0,0
322,Beian,NO,2020-05-10 17:31:33,63.66,9.57,35.01,76,75,4.7,light shower snow,0,0
323,Lensk,RU,2020-05-10 17:31:33,60.73,114.93,36.18,90,100,3.31,overcast clouds,0,0
324,Asau,RO,2020-05-10 17:31:33,46.43,26.4,61.0,59,30,2.62,scattered clouds,0,0
325,Srednekolymsk,RU,2020-05-10 17:31:33,67.45,153.68,29.03,98,95,12.97,overcast clouds,0,0
326,Namatanai,PG,2020-05-10 17:31:33,-3.67,152.43,80.38,79,100,6.17,overcast clouds,0,0
327,Havoysund,NO,2020-05-10 17:31:34,71.0,24.66,35.6,51,48,8.05,scattered clouds,0,0
328,Margate,GB,2020-05-10 17:31:34,51.38,1.39,50.0,81,100,35.7,overcast clouds,0,0
329,Litovko,RU,2020-05-10 17:31:34,49.24,135.17,46.17,95,99,0.43,overcast clouds,0,0
330,Ugoofaaru,MV,2020-05-10 17:31:34,5.67,73.0,85.32,70,100,5.95,overcast clouds,0,0
331,Quang Ngai,VN,2020-05-10 17:30:34,15.12,108.8,75.67,89,0,3.8,clear sky,0,0
332,Batsfjord,NO,2020-05-10 17:31:35,70.63,29.72,35.6,69,40,9.17,scattered clouds,0,0
333,Lemnia,RO,2020-05-10 17:31:35,46.05,26.27,70.0,59,23,3.33,few clouds,0,0
334,Berlevag,NO,2020-05-10 17:31:35,70.86,29.09,32.0,85,31,11.41,scattered clouds,0,0
335,Winslow,US,2020-05-10 17:31:03,35.02,-110.7,80.6,21,1,5.99,clear sky,0,0
336,Pueblo Nuevo,MX,2020-05-10 17:28:29,23.38,-105.38,81.79,13,0,5.17,clear sky,0,0
337,Qaqortoq,GL,2020-05-10 17:31:35,60.72,-46.03,60.8,29,75,11.41,broken clouds,0,0
338,Sainte-Adele,CA,2020-05-10 17:31:36,45.95,-74.13,53.01,34,75,14.99,broken clouds,0,0
339,Healdsburg,US,2020-05-10 17:31:36,38.61,-122.87,54.0,87,90,3.36,overcast clouds,0,0
340,Northam,GB,2020-05-10 17:31:36,51.03,-4.22,55.99,78,99,18.99,overcast clouds,0,0
341,Tomatlan,MX,2020-05-10 17:31:36,19.93,-105.25,91.2,35,0,9.75,clear sky,0,0
342,Norrtalje,SE,2020-05-10 17:31:37,59.76,18.7,53.01,89,100,1.01,light rain,0,0
343,Bara,NG,2020-05-10 17:31:37,10.37,10.73,94.23,36,9,9.33,clear sky,0,0
344,Bayir,TR,2020-05-10 17:31:37,37.27,28.22,69.8,49,18,2.24,few clouds,0,0
345,Los Llanos De Aridane,ES,2020-05-10 17:31:37,28.66,-17.92,73.4,69,6,23.04,clear sky,0,0
346,Liverpool,GB,2020-05-10 17:28:10,53.41,-2.98,50.0,45,91,20.8,overcast clouds,0,0
347,Jiuquan,CN,2020-05-10 17:31:37,39.74,98.52,48.29,49,0,8.72,clear sky,0,0
348,Niquero,CU,2020-05-10 17:31:38,20.04,-77.58,87.57,59,100,9.73,overcast clouds,0,0
349,Kirakira,SB,2020-05-10 17:31:39,-10.45,161.92,78.48,81,0,7.45,clear sky,0,0
350,Gambela,ET,2020-05-10 17:31:39,8.25,34.58,79.95,71,79,1.97,broken clouds,0,0
351,Labrea,BR,2020-05-10 17:31:39,-7.26,-64.8,89.58,54,32,1.57,scattered clouds,0,0
352,Ornskoldsvik,SE,2020-05-10 17:28:18,63.29,18.72,39.2,86,100,3.36,light rain,0,0
353,Seoul,KR,2020-05-10 17:29:49,37.57,126.98,57.2,93,20,10.29,mist,0,0
354,Bezenchuk,RU,2020-05-10 17:31:40,52.98,49.43,53.71,76,50,7.92,scattered clouds,0,0
355,Canutama,BR,2020-05-10 17:31:40,-6.53,-64.38,90.99,52,43,1.43,scattered clouds,0,0
356,Santa Marta,CO,2020-05-10 17:30:02,11.24,-74.2,93.2,59,20,6.93,few clouds,0,0
357,Lokosovo,RU,2020-05-10 17:31:40,61.13,74.82,64.58,43,90,7.38,overcast clouds,0,0
358,Tezu,IN,2020-05-10 17:31:41,27.92,96.17,76.19,46,0,4.54,clear sky,0,0
359,Hamilton,US,2020-05-10 17:30:29,39.18,-84.53,63.0,44,75,14.99,broken clouds,0,0
360,Lata,PT,2020-05-10 17:31:41,40.16,-8.33,64.99,73,56,5.01,light rain,0,0
361,Pitimbu,BR,2020-05-10 17:31:41,-7.47,-34.81,86.0,66,40,11.41,scattered clouds,0,0
362,Thompson,CA,2020-05-10 17:31:42,55.74,-97.86,24.8,41,5,13.87,clear sky,0,0
363,Mar Del Plata,AR,2020-05-10 17:31:42,-38.0,-57.56,66.2,63,47,11.41,scattered clouds,0,0
364,Monrovia,LR,2020-05-10 17:31:42,6.3,-10.8,77.0,94,75,8.05,broken clouds,0,0
365,Tabuk,PH,2020-05-10 17:31:42,17.42,121.44,76.14,85,29,1.97,scattered clouds,0,0
366,Highland Springs,US,2020-05-10 17:31:43,37.55,-77.33,64.0,31,20,8.05,few clouds,0,0
367,Maniitsoq,GL,2020-05-10 17:31:43,65.42,-52.9,40.19,82,100,15.95,overcast clouds,0,0
368,Zhigansk,RU,2020-05-10 17:31:43,66.77,123.37,20.52,96,0,13.11,clear sky,0,0
369,Marsh Harbour,BS,2020-05-10 17:31:43,26.54,-77.06,69.13,89,100,15.79,moderate rain,0,0
370,Port Hardy,CA,2020-05-10 17:31:43,50.7,-127.42,59.0,58,20,4.7,few clouds,0,0
371,Livingston,GB,2020-05-10 17:31:43,55.9,-3.52,46.0,48,40,14.99,scattered clouds,0,0
372,Launceston,AU,2020-05-10 17:31:44,-41.45,147.17,46.0,100,44,9.17,scattered clouds,0,0
373,Santiago,CL,2020-05-10 17:30:00,-33.46,-70.65,64.4,51,0,5.82,clear sky,0,0
374,Jiayuguan,CN,2020-05-10 17:31:44,39.82,98.3,46.49,52,0,10.2,clear sky,0,0
375,Ribeira Brava,PT,2020-05-10 17:31:44,32.65,-17.07,69.8,68,20,5.82,few clouds,0,0
376,Opuwo,NA,2020-05-10 17:31:44,-18.06,13.84,73.11,35,36,9.15,scattered clouds,0,0
377,Mackay,AU,2020-05-10 17:31:44,-21.15,149.2,62.6,88,1,3.36,clear sky,0,0
378,Klyuchi,RU,2020-05-10 17:31:45,52.27,79.17,67.73,36,18,7.7,few clouds,0,0
379,Lapua,FI,2020-05-10 17:28:49,62.97,23.01,39.99,94,100,4.0,moderate rain,0,0
380,Lima,PE,2020-05-10 17:31:45,-12.04,-77.03,73.4,64,32,18.34,scattered clouds,0,0
381,Jais,IN,2020-05-10 17:31:45,26.25,81.53,92.7,22,0,12.06,clear sky,0,0
382,Upernavik,GL,2020-05-10 17:31:45,72.79,-56.15,17.83,88,42,12.64,scattered clouds,0,0
383,Bracebridge,CA,2020-05-10 17:27:00,45.03,-79.32,44.6,48,1,10.29,clear sky,0,0
384,Napoleon,US,2020-05-10 17:28:57,41.39,-84.13,57.2,50,75,18.34,broken clouds,0,0
385,Anadyr,RU,2020-05-10 17:28:04,64.75,177.48,33.8,90,75,40.26,broken clouds,0,0
386,Paracuru,BR,2020-05-10 17:31:46,-3.41,-39.03,84.0,66,89,20.0,overcast clouds,0,0
387,Turukhansk,RU,2020-05-10 17:31:46,65.82,87.98,40.05,72,100,17.47,overcast clouds,0,0
388,Mackenzie,CA,2020-05-10 17:31:46,55.3,-123.17,46.4,39,1,11.41,clear sky,0,0
389,Avarua,CK,2020-05-10 17:31:46,-21.21,-159.78,78.8,78,30,14.99,scattered clouds,0,0
390,Keti Bandar,PK,2020-05-10 17:31:47,24.14,67.45,81.82,88,0,12.24,clear sky,0,0
391,Bani,DO,2020-05-10 17:31:47,18.28,-70.33,89.6,59,75,13.87,broken clouds,0,0
392,Lompoc,US,2020-05-10 17:28:18,34.64,-120.46,59.0,93,90,4.7,overcast clouds,0,0
393,Montepuez,MZ,2020-05-10 17:31:47,-13.13,39.0,67.73,79,23,4.43,few clouds,0,0
394,Kenai,US,2020-05-10 17:31:48,60.55,-151.26,51.8,53,90,9.46,overcast clouds,0,0
395,De-Kastri,RU,2020-05-10 17:31:48,51.47,140.78,39.52,80,100,6.13,overcast clouds,0,0
396,Lasa,IT,2020-05-10 17:31:48,46.62,10.7,57.2,71,40,8.05,scattered clouds,0,0
397,De Aar,ZA,2020-05-10 17:31:48,-30.65,24.01,60.69,32,0,2.53,clear sky,0,0
398,Cacapava Do Sul,BR,2020-05-10 17:31:48,-30.51,-53.49,73.29,50,48,9.86,scattered clouds,0,0
399,Lincoln,US,2020-05-10 17:30:03,40.8,-96.67,52.0,42,0,8.01,clear sky,0,0
400,Kharitonovo,RU,2020-05-10 17:31:49,61.4,47.5,49.33,86,47,5.75,scattered clouds,0,0
401,Iraucuba,BR,2020-05-10 17:31:49,-3.75,-39.78,82.42,70,75,5.77,light rain,0,0
402,Hirado,JP,2020-05-10 17:31:49,33.36,129.55,62.01,95,25,7.58,scattered clouds,0,0
403,Muromtsevo,RU,2020-05-10 17:31:49,56.37,75.24,63.36,54,0,4.63,clear sky,0,0
404,Narsaq,GL,2020-05-10 17:31:50,60.92,-46.05,60.8,29,75,11.41,broken clouds,0,0
405,Marsabit,KE,2020-05-10 17:31:50,2.33,37.99,69.08,78,34,20.02,scattered clouds,0,0
406,Adre,TD,2020-05-10 17:31:50,13.47,22.2,79.9,14,0,4.56,clear sky,0,0
407,Mogadishu,SO,2020-05-10 17:30:18,2.04,45.34,81.25,82,100,10.49,light rain,0,0
408,Lakes Entrance,AU,2020-05-10 17:31:50,-37.88,147.98,45.0,85,0,11.9,clear sky,0,0
409,Guadalupe,MX,2020-05-10 17:31:50,25.68,-100.25,68.0,82,90,8.05,haze,0,0
410,Kloulklubed,PW,2020-05-10 17:31:50,7.04,134.26,77.0,94,90,14.65,overcast clouds,0,0
411,Punta Alta,AR,2020-05-10 17:31:51,-38.88,-62.07,66.83,33,0,23.31,clear sky,0,0
412,Padang,ID,2020-05-10 17:31:51,-0.95,100.35,78.57,80,84,4.54,light rain,0,0
413,Cravo Norte,CO,2020-05-10 17:31:51,6.3,-70.2,90.88,51,97,4.47,overcast clouds,0,0
414,Kodiak,US,2020-05-10 17:31:51,57.79,-152.41,44.6,93,75,3.36,broken clouds,0,0
415,Cam Ranh,VN,2020-05-10 17:31:51,11.92,109.16,82.4,94,20,1.12,few clouds,0,0
416,Ballitoville,ZA,2020-05-10 17:30:22,-29.54,31.21,66.2,88,0,3.36,clear sky,0,0
417,Ulaangom,MN,2020-05-10 17:31:52,49.98,92.07,50.43,43,0,1.12,clear sky,0,0
418,Ponta Do Sol,PT,2020-05-10 17:31:52,32.67,-17.1,69.8,68,20,5.82,few clouds,0,0
419,Panzhihua,CN,2020-05-10 17:31:52,26.59,101.71,72.52,37,0,1.21,clear sky,0,0
420,San Patricio,MX,2020-05-10 17:31:53,19.22,-104.7,84.2,62,5,11.41,clear sky,0,0
421,Kokopo,PG,2020-05-10 17:31:53,-4.35,152.26,78.69,81,55,5.28,broken clouds,0,0
422,Jiangkou,CN,2020-05-10 17:31:53,25.49,119.2,68.0,94,90,11.18,light rain,0,0
423,Orlik,RU,2020-05-10 17:31:53,52.52,99.83,45.28,57,67,2.28,broken clouds,0,0
424,Lesogorsk,RU,2020-05-10 17:31:53,56.05,99.51,48.74,55,64,2.57,broken clouds,0,0
425,Ahipara,NZ,2020-05-10 17:31:53,-35.17,173.17,56.17,85,92,6.26,overcast clouds,0,0
426,Pozo Colorado,PY,2020-05-10 17:31:53,-23.49,-58.8,90.72,37,0,14.81,clear sky,0,0
427,Jasper,US,2020-05-10 17:31:54,37.2,-94.35,55.4,50,1,13.87,clear sky,0,0
428,Mirabela,BR,2020-05-10 17:31:54,-16.26,-44.16,78.8,36,9,5.82,clear sky,0,0
429,Uthal,PK,2020-05-10 17:30:31,25.81,66.62,80.78,86,15,5.84,few clouds,0,0
430,Bethel,US,2020-05-10 17:31:16,41.37,-73.41,60.01,35,73,5.99,broken clouds,0,0
431,Molde,NO,2020-05-10 17:31:54,62.74,7.16,39.2,64,75,18.34,shower rain,0,0
432,Ucluelet,CA,2020-05-10 17:31:54,48.93,-125.55,68.0,45,40,3.36,scattered clouds,0,0
433,Kidal,ML,2020-05-10 17:31:54,18.44,1.41,95.9,8,1,2.06,clear sky,0,0
434,Atikokan,CA,2020-05-10 17:31:55,48.76,-91.62,42.64,54,98,11.14,overcast clouds,0,0
435,Griffith,US,2020-05-10 17:30:58,41.53,-87.42,50.0,76,90,11.41,light rain,0,0
436,Jingdezhen,CN,2020-05-10 17:31:55,29.29,117.21,64.89,90,6,3.2,clear sky,0,0
437,Enshi,CN,2020-05-10 17:31:55,30.3,109.48,64.89,83,3,0.58,clear sky,0,0
438,Kedougou,SN,2020-05-10 17:31:55,12.56,-12.17,100.53,28,94,9.73,overcast clouds,0,0
439,Scarborough,GB,2020-05-10 17:30:29,54.28,-0.4,46.0,62,52,5.99,broken clouds,0,0
440,Acapulco,MX,2020-05-10 17:31:56,16.86,-99.89,87.8,70,5,10.29,haze,0,0
441,Lichinga,MZ,2020-05-10 17:31:56,-13.31,35.24,57.15,90,38,5.1,scattered clouds,0,0
442,Sikasso,ML,2020-05-10 17:31:56,10.92,-7.0,93.4,38,48,6.73,scattered clouds,0,0
443,Radhanpur,IN,2020-05-10 17:31:57,23.83,71.6,87.22,58,0,12.97,clear sky,0,0
444,Fare,PF,2020-05-10 17:31:57,-16.7,-151.02,81.57,80,44,12.66,light rain,0,0
445,North Myrtle Beach,US,2020-05-10 17:31:57,33.82,-78.68,71.01,37,1,8.05,clear sky,0,0
446,Mitu,CO,2020-05-10 17:31:58,1.2,-70.17,80.31,93,84,2.77,moderate rain,0,0
447,Tolaga Bay,NZ,2020-05-10 17:31:58,-38.37,178.3,56.44,72,100,5.46,overcast clouds,0,0
448,Slave Lake,CA,2020-05-10 17:30:39,55.28,-114.77,46.4,42,40,10.29,scattered clouds,0,0
449,Mokolo,CM,2020-05-10 17:31:58,10.74,13.8,104.0,16,20,8.05,few clouds,0,0
450,Ankara,TR,2020-05-10 17:31:11,39.92,32.85,64.4,34,40,3.36,scattered clouds,0,0
451,Nandu,CN,2020-05-10 17:31:59,22.85,110.82,78.94,87,99,1.61,overcast clouds,0,0
452,Skjervoy,NO,2020-05-10 17:31:59,70.03,20.97,37.4,40,96,8.05,overcast clouds,0,0
453,Zaysan,KZ,2020-05-10 17:31:59,47.47,84.87,63.48,27,100,6.46,overcast clouds,0,0
454,Yaguajay,CU,2020-05-10 17:31:59,22.33,-79.24,83.03,71,100,6.58,light rain,0,0
455,Gawler,AU,2020-05-10 17:31:59,-34.6,138.73,46.99,91,0,5.01,clear sky,0,0
456,Lulea,SE,2020-05-10 17:30:49,65.58,22.15,37.4,86,75,9.17,light intensity shower rain,0,0
457,Murakami,JP,2020-05-10 17:32:00,38.23,139.48,57.96,92,100,11.21,overcast clouds,0,0
458,Mehamn,NO,2020-05-10 17:32:01,71.04,27.85,32.0,88,36,11.41,scattered clouds,0,0
459,Kultuk,RU,2020-05-10 17:32:01,51.72,103.7,52.29,67,42,9.84,scattered clouds,0,0
460,Amapa,BR,2020-05-10 17:32:01,1.0,-52.0,83.8,85,78,2.1,moderate rain,0,0
461,Copiapo,CL,2020-05-10 17:32:01,-27.37,-70.33,64.4,63,40,3.36,scattered clouds,0,0
462,Mont-Dore,NC,2020-05-10 17:32:02,-22.28,166.58,71.01,99,2,4.45,clear sky,0,0
463,Robe,AU,2020-05-10 17:32:02,-37.18,139.75,57.36,73,4,10.98,clear sky,0,0
464,Eyrarbakki,IS,2020-05-10 17:32:02,63.86,-21.15,46.0,60,20,12.75,few clouds,0,0
465,Lotoshino,RU,2020-05-10 17:32:02,56.23,35.64,48.24,72,50,6.73,scattered clouds,0,0
466,Capinopolis,BR,2020-05-10 17:32:02,-18.68,-49.57,78.66,57,0,6.2,clear sky,0,0
467,Pljevlja,ME,2020-05-10 17:32:02,43.33,19.33,64.4,61,94,6.93,overcast clouds,0,0
468,Ternate,ID,2020-05-10 17:32:03,0.8,127.4,82.71,76,100,5.82,overcast clouds,0,0
469,Riyadh,SA,2020-05-10 17:29:14,24.69,46.72,93.2,21,79,9.17,broken clouds,0,0
470,Machinga,MW,2020-05-10 17:32:03,-15.17,35.3,62.64,86,46,4.85,scattered clouds,0,0
471,Yaan,NG,2020-05-10 17:32:03,7.38,8.57,75.56,86,88,4.63,overcast clouds,0,0
472,Palmer,US,2020-05-10 17:27:33,42.16,-72.33,57.99,28,75,17.22,broken clouds,0,0
473,Shonguy,RU,2020-05-10 17:32:04,68.75,33.15,35.6,69,75,8.95,broken clouds,0,0
474,Esna,EG,2020-05-10 17:32:06,25.29,32.55,93.2,21,0,10.85,clear sky,0,0
475,Bela,IN,2020-05-10 17:32:06,25.93,81.98,92.89,21,0,12.82,clear sky,0,0
476,Suluova,TR,2020-05-10 17:32:06,40.83,35.65,59.0,44,21,11.41,few clouds,0,0
477,Nyuksenitsa,RU,2020-05-10 17:32:06,60.41,44.24,50.79,73,34,8.21,scattered clouds,0,0
478,Melville,US,2020-05-10 17:32:06,40.79,-73.42,60.8,25,1,21.92,clear sky,0,0
479,Roma,US,2020-05-10 17:32:07,43.21,-75.46,46.99,52,90,14.99,light rain,0,0
480,Elbistan,TR,2020-05-10 17:27:14,38.21,37.2,57.06,41,0,9.71,clear sky,0,0
481,Mattru,SL,2020-05-10 17:32:07,7.62,-11.83,83.32,74,96,6.42,overcast clouds,0,0
482,Kurtamysh,RU,2020-05-10 17:32:07,54.91,64.43,59.81,91,14,4.12,few clouds,0,0
483,Mwinilunga,ZM,2020-05-10 17:29:48,-11.74,24.43,63.73,62,100,4.65,overcast clouds,0,0
484,Sheregesh,RU,2020-05-10 17:32:08,52.92,87.99,52.3,58,0,3.18,clear sky,0,0
485,Deputatskiy,RU,2020-05-10 17:32:08,69.3,139.9,22.01,95,68,4.09,broken clouds,0,0
486,Dwarka,IN,2020-05-10 17:32:08,22.24,68.97,82.09,87,0,12.95,clear sky,0,0
487,Clyde River,CA,2020-05-10 17:32:08,70.47,-68.59,15.8,61,90,4.7,overcast clouds,0,0
488,Havelock,US,2020-05-10 17:32:08,34.88,-76.9,68.0,32,1,6.93,clear sky,0,0
489,Kaiwaka,NZ,2020-05-10 17:32:09,-36.17,174.45,61.0,84,91,1.99,overcast clouds,0,0
490,Manado,ID,2020-05-10 17:32:09,1.49,124.85,77.0,94,40,2.24,scattered clouds,0,0
491,Aranos,NA,2020-05-10 17:32:09,-24.13,19.12,68.0,28,0,9.66,clear sky,0,0
492,Halifax,CA,2020-05-10 17:28:45,44.65,-63.57,45.0,59,47,3.0,scattered clouds,0,0
493,Circleville,US,2020-05-10 17:28:12,39.6,-82.95,57.99,41,40,18.34,scattered clouds,0,0
494,Boguchany,RU,2020-05-10 17:32:09,58.38,97.45,46.44,54,68,2.01,broken clouds,0,0
495,Bubaque,GW,2020-05-10 17:32:09,11.28,-15.83,78.46,74,81,12.03,broken clouds,0,0
496,Roslyakovo,RU,2020-05-10 17:32:10,69.04,33.2,35.6,69,75,8.95,broken clouds,0,0
497,Ixtapa,MX,2020-05-10 17:32:10,20.7,-105.2,80.6,54,5,5.82,clear sky,0,0
498,Katsuyama,JP,2020-05-10 17:32:10,36.06,136.5,62.6,88,75,9.17,broken clouds,0,0
499,Vila Velha,BR,2020-05-10 17:32:10,-20.33,-40.29,78.8,44,20,9.17,few clouds,0,0
500,Saint-Pierre,RE,2020-05-10 17:32:10,-21.34,55.48,69.8,64,60,9.17,broken clouds,0,0
501,Merritt Island,US,2020-05-10 17:32:11,28.54,-80.67,73.99,88,90,6.93,light rain,0,0
502,Ilhabela,BR,2020-05-10 17:32:11,-23.78,-45.36,74.08,63,0,6.11,clear sky,0,0
503,Sinegorye,RU,2020-05-10 17:32:11,62.08,150.48,28.98,96,100,5.79,snow,0,0
504,El Alto,PE,2020-05-10 17:32:11,-4.27,-81.21,76.71,68,81,12.66,broken clouds,0,0
505,Port Macquarie,AU,2020-05-10 17:32:11,-31.43,152.92,46.0,89,67,11.41,broken clouds,0,0
506,Gushikawa,JP,2020-05-10 17:32:11,26.35,127.87,78.8,94,75,10.29,broken clouds,0,0
507,Mitha Tiwana,PK,2020-05-10 17:32:12,32.25,72.11,90.55,25,30,8.39,scattered clouds,0,0
508,Sterling,US,2020-05-10 17:30:33,39.01,-77.43,63.0,28,20,10.29,few clouds,0,0
509,Sa Kaeo,TH,2020-05-10 17:32:12,13.81,102.07,81.73,85,92,4.7,light rain,0,0
510,Inhambane,MZ,2020-05-10 17:32:12,-23.86,35.38,71.6,78,40,9.17,scattered clouds,0,0
511,Kaeo,NZ,2020-05-10 17:32:12,-35.1,173.78,54.0,3,91,1.99,overcast clouds,0,0
512,Zabaykalsk,RU,2020-05-10 17:32:12,49.63,117.32,50.36,63,99,24.54,overcast clouds,0,0
513,Alice Springs,AU,2020-05-10 17:32:13,-23.7,133.88,55.4,37,100,10.29,overcast clouds,0,0
514,Excelsior Springs,US,2020-05-10 17:32:14,39.34,-94.23,53.01,46,1,12.75,clear sky,0,0
515,Vigrestad,NO,2020-05-10 17:32:14,58.57,5.7,42.8,56,40,29.97,shower rain,0,0
516,Mahajanga,MG,2020-05-10 17:32:14,-15.72,46.32,77.0,78,20,3.36,few clouds,0,0
517,Usinsk,RU,2020-05-10 17:32:15,65.99,57.53,43.74,86,49,8.08,scattered clouds,0,0
518,Iskateley,RU,2020-05-10 17:32:15,67.68,53.15,34.05,95,98,9.33,overcast clouds,0,0
519,Chuka,KE,2020-05-10 17:32:15,-0.33,37.65,63.66,94,78,2.89,light rain,0,0
520,Uchiza,PE,2020-05-10 17:32:15,-8.46,-76.46,88.52,46,30,2.21,scattered clouds,0,0
521,Quatre Cocos,MU,2020-05-10 17:32:15,-20.21,57.76,73.4,64,40,11.41,scattered clouds,0,0
522,Tahe,CN,2020-05-10 17:32:15,52.33,124.73,40.1,66,90,2.73,overcast clouds,0,0
523,San Policarpo,PH,2020-05-10 17:32:16,12.18,125.51,82.22,83,100,9.42,overcast clouds,0,0
524,Naze,JP,2020-05-10 17:32:16,28.37,129.48,71.6,100,90,8.05,light rain,0,0
525,Jalu,LY,2020-05-10 17:32:16,29.03,21.55,81.21,14,6,10.16,clear sky,0,0
526,Carndonagh,IE,2020-05-10 17:32:17,55.25,-7.27,50.0,56,40,18.34,scattered clouds,0,0
527,Olinda,BR,2020-05-10 17:32:17,-8.01,-34.86,86.0,66,40,12.75,scattered clouds,0,0
528,Hargeysa,SO,2020-05-10 17:32:17,9.56,44.06,74.89,74,47,7.43,scattered clouds,0,0
529,San Andres,CO,2020-05-10 17:32:18,12.58,-81.7,87.8,74,40,10.29,scattered clouds,0,0
530,Isla Mujeres,MX,2020-05-10 17:32:18,21.23,-86.73,78.8,88,90,4.7,overcast clouds,0,0
531,Vao,NC,2020-05-10 17:32:18,-22.67,167.48,71.49,61,15,6.85,few clouds,0,0
532,Yulara,AU,2020-05-10 17:32:18,-25.24,130.99,57.2,41,99,13.87,overcast clouds,0,0
533,Regeneracao,BR,2020-05-10 17:32:18,-6.24,-42.69,83.16,74,100,4.68,light rain,0,0
534,Birobidzhan,RU,2020-05-10 17:32:18,48.8,132.95,47.17,90,52,1.92,light rain,0,0
535,Rundu,NA,2020-05-10 17:32:18,-17.93,19.77,73.4,38,93,3.36,overcast clouds,0,0
536,Hobyo,SO,2020-05-10 17:32:19,5.35,48.53,85.37,74,3,12.53,clear sky,0,0
537,Parvatsar,IN,2020-05-10 17:32:19,26.88,74.77,88.02,25,18,14.63,few clouds,0,0
538,Umm Lajj,SA,2020-05-10 17:32:19,25.02,37.27,76.48,57,35,9.42,scattered clouds,0,0
539,Karasjok,NO,2020-05-10 17:32:19,69.47,25.51,35.6,69,75,13.87,broken clouds,0,0
540,Bridlington,GB,2020-05-10 17:32:20,54.08,-0.19,45.0,52,53,19.46,broken clouds,0,0
541,Prince Rupert,CA,2020-05-10 17:32:20,54.32,-130.32,68.0,22,1,12.75,clear sky,0,0
542,Juneau,US,2020-05-10 17:32:20,58.3,-134.42,57.2,62,40,5.82,scattered clouds,0,0
543,Kavaratti,IN,2020-05-10 17:32:20,10.57,72.64,85.41,75,79,11.01,broken clouds,0,0
544,Lufilufi,WS,2020-05-10 17:32:20,-13.87,-171.6,84.24,67,37,6.53,scattered clouds,0,0
545,Cross Lanes,US,2020-05-10 17:32:20,38.42,-81.79,66.0,30,29,5.99,scattered clouds,0,0
546,Camocim,BR,2020-05-10 17:32:21,-2.9,-40.84,79.47,89,80,11.72,moderate rain,0,0
